City_ID,City,Country,Lat,Lng,Max Temp,Humidity,Cloudiness,Wind Speed,Current Description
0,Yellowknife,CA,62.456,-114.3525,27.12,59,20,10.36,few clouds
1,Bredasdorp,ZA,-34.5322,20.0403,58.55,66,96,4.54,overcast clouds
2,Hermanus,ZA,-34.4187,19.2345,54.81,66,100,5.91,overcast clouds
3,Avenal,US,36.0041,-120.129,67.77,30,0,12.8,clear sky
4,Busselton,AU,-33.65,115.3333,57.0,79,9,10.58,clear sky
5,Saint Anthony,US,45.0205,-93.218,72.66,70,100,26.46,overcast clouds
6,Hilo,US,19.7297,-155.09,83.28,70,40,5.99,scattered clouds
7,Kirakira,SB,-10.4544,161.9205,81.66,79,77,3.87,broken clouds
8,Ribeira Grande,PT,38.5167,-28.7,59.4,67,40,17.27,scattered clouds
9,Dunmore East,IE,52.1514,-6.9861,55.69,68,12,21.25,few clouds
10,Lebu,CL,-37.6167,-73.65,56.93,75,67,8.86,broken clouds
11,Mataura,NZ,-46.1927,168.8643,51.48,97,100,7.43,overcast clouds
12,Thompson,CA,55.7435,-97.8558,46.56,34,75,13.8,broken clouds
13,Biak,ID,-0.9131,122.8766,76.21,85,94,0.58,overcast clouds
14,Bambous Virieux,MU,-20.3428,57.7575,77.25,61,20,14.97,few clouds
15,Norman Wells,CA,65.282,-126.8329,39.24,48,0,16.11,clear sky
16,Hobart,AU,-42.8794,147.3294,47.05,88,0,6.91,clear sky
17,Saint-Philippe,RE,-21.3585,55.7679,71.22,78,46,15.9,scattered clouds
18,Khatanga,RU,71.9667,102.5,-12.98,100,78,1.97,broken clouds
19,Hobyo,SO,5.3505,48.5268,83.5,75,35,13.06,scattered clouds
20,Richards Bay,ZA,-28.783,32.0377,69.53,91,49,2.48,scattered clouds
21,Victoria,HK,22.2855,114.1577,79.18,87,7,4.0,clear sky
22,Okha,RU,53.5739,142.9478,25.83,89,37,4.47,scattered clouds
23,Punta Arenas,CL,-53.15,-70.9167,44.71,87,100,13.8,light rain
24,Clyde River,CA,70.4692,-68.5914,-0.17,85,75,2.3,broken clouds
25,Tiksi,RU,71.6872,128.8694,2.48,99,100,1.99,overcast clouds
26,Hovd,MN,48.0056,91.6419,43.97,47,19,5.57,few clouds
27,Poum,NC,-20.2333,164.0167,76.39,73,28,9.53,scattered clouds
28,Tuatapere,NZ,-46.1333,167.6833,50.81,89,100,11.43,light rain
29,Longyearbyen,SJ,78.2186,15.6401,22.84,86,75,1.14,broken clouds
30,Mar Del Plata,AR,-38.0023,-57.5575,75.22,31,0,17.27,clear sky
31,Ushuaia,AR,-54.8,-68.3,46.06,66,75,9.22,broken clouds
32,Krasnoye,UA,49.9145,24.6134,42.69,88,79,6.55,broken clouds
33,Chimoio,MZ,-19.1164,33.4833,69.66,94,75,1.03,broken clouds
34,Chapais,CA,49.7834,-74.8492,35.38,60,100,6.35,overcast clouds
35,Ancud,CL,-41.8697,-73.8203,50.23,83,100,21.23,light rain
36,Iqaluit,CA,63.7506,-68.5145,11.93,78,20,3.44,few clouds
37,Rikitea,PF,-23.1203,-134.9692,75.51,76,100,13.27,light rain
38,Mandalgovi,MN,45.7625,106.2708,40.15,47,64,4.63,broken clouds
39,Kapaa,US,22.0752,-159.319,80.58,83,100,14.97,overcast clouds
40,New Norfolk,AU,-42.7826,147.0587,46.71,82,26,2.89,scattered clouds
41,Payo,ID,-3.7508,103.6372,73.33,99,100,2.37,moderate rain
42,Derzhavinsk,KZ,51.1,66.3167,40.14,49,87,19.06,overcast clouds
43,Kaeo,NZ,-35.1,173.7833,57.33,95,43,6.58,scattered clouds
44,San Patricio,US,28.017,-97.5169,87.75,64,88,21.97,overcast clouds
45,Sarkand,KZ,45.41,79.9186,57.7,63,99,5.59,overcast clouds
46,Port Elizabeth,ZA,-33.918,25.5701,62.89,97,100,4.61,overcast clouds
47,Port Alfred,ZA,-33.5906,26.891,64.89,84,100,3.6,light rain
48,Portland,US,45.5234,-122.6762,64.99,55,20,7.0,few clouds
49,Guerrero Negro,MX,27.9769,-114.0611,65.55,53,0,20.0,clear sky
50,Balao,EC,-2.9167,-79.8167,81.34,72,39,5.35,scattered clouds
51,Flinders,AU,-34.5833,150.8552,57.06,91,7,4.0,clear sky
52,Dicabisagan,PH,17.0818,122.4157,76.62,90,16,3.09,few clouds
53,Manzhouli,CN,49.6,117.4333,31.86,76,95,7.47,overcast clouds
54,Prado,BR,-17.3411,-39.2208,78.82,87,31,9.82,scattered clouds
55,Kalmunai,LK,7.4167,81.8167,79.09,84,95,5.88,overcast clouds
56,Tasiilaq,GL,65.6145,-37.6368,39.36,86,88,5.97,overcast clouds
57,Karpogory,RU,64.0019,44.4451,32.45,99,100,5.77,light snow
58,Vao,NC,-22.6667,167.4833,75.24,72,91,24.81,overcast clouds
59,Aitape,PG,-3.1374,142.3475,76.73,90,99,4.34,overcast clouds
60,Puerto Ayora,EC,-0.7393,-90.3518,78.76,81,57,10.98,broken clouds
61,Lompoc,US,34.6391,-120.4579,79.02,53,0,24.16,clear sky
62,Tazovskiy,RU,67.4667,78.7,-2.65,100,100,5.46,overcast clouds
63,Chenzhou,CN,25.8,113.0333,70.0,94,2,3.98,clear sky
64,Fershampenuaz,RU,53.5202,59.8117,39.78,52,78,8.01,broken clouds
65,Albany,US,42.6001,-73.9662,55.94,30,100,3.83,overcast clouds
66,Bluff,NZ,-46.6,168.3333,51.8,74,100,20.71,overcast clouds
67,Puteyets,RU,65.1716,57.091,21.4,92,96,3.44,overcast clouds
68,Cape Town,ZA,-33.9258,18.4232,58.12,70,20,13.8,few clouds
69,Atuona,PF,-9.8,-139.0333,79.2,80,83,16.6,broken clouds
70,Manado,ID,1.487,124.8455,74.17,100,40,2.3,scattered clouds
71,Kasongo,CD,-4.45,26.6667,69.89,96,100,2.75,overcast clouds
72,Meybod,IR,32.2501,54.0166,75.22,29,33,3.83,scattered clouds
73,Betanzos,ES,43.2804,-8.2147,55.09,72,20,6.91,few clouds
74,Sao Gabriel Da Cachoeira,BR,-0.1303,-67.0892,89.4,66,40,3.44,scattered clouds
75,Saint-Denis,FR,48.9167,2.3333,61.09,66,0,12.66,clear sky
76,Golden,US,39.7555,-105.2211,60.69,26,75,27.63,broken clouds
77,Barrow,US,71.2906,-156.7887,15.82,86,100,3.44,overcast clouds
78,Avarua,CK,-21.2078,-159.775,73.45,100,75,10.36,moderate rain
79,Rapid City,US,44.0805,-103.231,36.7,84,100,43.73,snow
80,Hithadhoo,MV,-0.6,73.0833,84.11,75,100,11.05,overcast clouds
81,Luderitz,NA,-26.6481,15.1594,56.95,78,0,22.28,clear sky
82,Anadyr,RU,64.75,177.4833,25.3,79,75,4.47,broken clouds
83,Saqqez,IR,36.2499,46.2735,53.55,25,58,2.89,broken clouds
84,Saint George,US,37.1041,-113.5841,67.78,24,0,8.01,clear sky
85,Zharkent,KZ,44.1628,80.0,62.38,50,88,6.58,overcast clouds
86,Dawlatabad,AF,36.4141,64.9053,70.84,52,100,2.95,overcast clouds
87,Batticaloa,LK,7.7102,81.6924,79.41,84,100,8.01,overcast clouds
88,Ouadda,CF,8.0777,22.4007,72.68,75,95,4.7,overcast clouds
89,Tuktoyaktuk,CA,69.4541,-133.0374,23.0,68,0,10.36,clear sky
90,Jamestown,US,42.097,-79.2353,77.52,35,0,6.91,clear sky
91,Dumai,ID,1.6833,101.45,75.18,93,99,1.05,overcast clouds
92,Bubaque,GW,11.2833,-15.8333,77.36,79,3,17.36,clear sky
93,Chokurdakh,RU,70.6333,147.9167,-5.26,100,100,2.24,overcast clouds
94,Najran,SA,17.4924,44.1277,77.65,23,29,2.26,scattered clouds
95,Batagay,RU,67.6333,134.6333,7.16,97,100,2.55,overcast clouds
96,Oranjemund,NA,-28.55,16.4333,55.4,87,6,15.19,clear sky
97,Isangel,VU,-19.55,169.2667,78.58,76,100,13.09,overcast clouds
98,Margate,GB,51.3813,1.3862,54.1,80,100,8.01,overcast clouds
99,Kodiak,US,57.79,-152.4072,42.31,81,100,13.8,light rain
100,Mendoza,AR,-32.8908,-68.8272,72.93,40,0,5.75,clear sky
101,Svetlyy Yar,RU,48.4748,44.781,49.08,76,45,6.11,scattered clouds
102,Kaitangata,NZ,-46.2817,169.8464,50.56,91,100,9.64,overcast clouds
103,Port Hardy,CA,50.6996,-127.4199,50.18,71,100,19.57,light rain
104,Alta Floresta,BR,-9.8756,-56.0861,89.42,55,40,3.44,scattered clouds
105,Fairlie,GB,55.756,-4.8556,48.42,80,5,13.35,clear sky
106,Cotonou,BJ,6.3654,2.4183,84.18,79,20,11.5,few clouds
107,Olafsvik,IS,64.8945,-23.7142,45.5,88,64,4.81,broken clouds
108,Berlevag,NO,70.8578,29.0864,39.0,89,100,14.05,overcast clouds
109,Georgetown,MY,5.4112,100.3354,80.55,94,40,3.44,scattered clouds
110,Krasnyy Chikoy,RU,50.3643,108.7512,24.64,88,57,2.57,broken clouds
111,East London,ZA,-33.0153,27.9116,62.76,88,97,4.94,overcast clouds
112,College,US,64.8569,-147.8028,48.0,39,100,4.61,overcast clouds
113,Carnarvon,AU,-24.8667,113.6333,60.87,100,75,6.91,broken clouds
114,Tabou,CI,4.423,-7.3528,80.98,84,100,5.68,overcast clouds
115,Katsuura,JP,35.1333,140.3,66.06,88,100,8.12,overcast clouds
116,Gat,IL,31.61,34.7642,63.28,100,1,7.18,clear sky
117,Cuamba,MZ,-14.8031,36.5372,66.99,99,21,4.61,few clouds
118,Broken Hill,AU,-31.95,141.4333,62.31,67,40,9.22,scattered clouds
119,Salta,AR,-24.7859,-65.4117,66.79,85,100,9.22,overcast clouds
120,Salinopolis,BR,-0.6136,-47.3561,73.8,94,100,4.83,overcast clouds
121,Batemans Bay,AU,-35.7167,150.1833,56.1,93,14,4.34,few clouds
122,Maryville,US,35.7565,-83.9705,86.11,44,40,9.22,scattered clouds
123,Bat Khela,PK,34.6167,71.9714,69.12,37,0,7.14,clear sky
124,Port Blair,IN,11.6667,92.75,80.64,94,20,2.3,mist
125,Sao Filipe,CV,14.8961,-24.4956,74.91,74,0,4.74,clear sky
126,Bondoukou,CI,8.0333,-2.8,77.47,72,72,4.38,light rain
127,Caravelas,BR,-17.7125,-39.2481,78.57,87,32,7.78,scattered clouds
128,Nuuk,GL,64.1835,-51.7216,38.01,87,75,19.57,broken clouds
129,Lukang,TW,24.0567,120.4352,78.44,83,29,4.12,scattered clouds
130,Cap Malheureux,MU,-19.9842,57.6142,76.46,66,74,7.0,broken clouds
131,Ponnani,IN,10.767,75.9252,74.52,83,100,3.98,overcast clouds
132,Praia Da Vitoria,PT,38.7333,-27.0667,59.25,72,20,14.09,few clouds
133,Makakilo City,US,21.3469,-158.0858,80.92,65,75,12.66,light rain
134,Chardara,KZ,41.2547,67.9692,68.9,48,100,5.97,overcast clouds
135,Pechora,RU,65.1472,57.2244,19.98,93,95,3.33,overcast clouds
136,Nador,MA,35.174,-2.9287,61.05,67,0,4.61,clear sky
137,Rock Hill,US,34.9249,-81.0251,82.78,48,75,6.91,broken clouds
138,Kudahuvadhoo,MV,2.6708,72.8944,84.29,73,76,10.71,broken clouds
139,Sorland,NO,67.667,12.6934,41.83,86,85,8.23,overcast clouds
140,Ibra,OM,22.6906,58.5334,78.21,38,3,1.99,clear sky
141,Patrasaer,IN,23.2167,87.5167,82.0,70,0,8.37,clear sky
142,Tehachapi,US,35.1322,-118.449,64.53,65,4,11.99,clear sky
143,Bengkulu,ID,-3.8004,102.2655,74.88,92,100,6.69,moderate rain
144,Arraial Do Cabo,BR,-22.9661,-42.0278,87.76,58,0,6.91,clear sky
145,Tautira,PF,-17.7333,-149.15,77.99,82,100,9.13,moderate rain
146,Narsaq,GL,60.9167,-46.05,44.82,96,100,2.19,light rain
147,Komsomolskiy,UZ,40.4272,71.7189,70.52,43,49,9.62,scattered clouds
148,Yakeshi,CN,49.2833,120.7333,23.56,92,68,4.03,broken clouds
149,Yasothon,TH,15.75,104.1333,84.04,65,81,5.41,broken clouds
150,Qasigiannguit,GL,68.8193,-51.1922,28.65,89,100,2.57,overcast clouds
151,Turukhansk,RU,65.8167,87.9833,4.33,98,79,6.04,broken clouds
152,Vaini,TO,-21.2,-175.2,77.16,83,75,2.3,broken clouds
153,Laiyang,CN,36.9758,120.7136,52.2,87,56,4.9,broken clouds
154,Sinnamary,GF,5.3833,-52.95,77.32,88,99,7.58,overcast clouds
155,Touros,BR,-5.1989,-35.4608,75.67,92,100,6.8,moderate rain
156,Grand Gaube,MU,-20.0064,57.6608,77.4,66,69,7.0,broken clouds
157,Hasaki,JP,35.7333,140.8333,63.0,73,100,15.3,overcast clouds
158,Herat,AF,34.5,62.0,61.63,59,70,9.98,broken clouds
159,Castro,BR,-24.7911,-50.0119,64.33,91,99,7.72,overcast clouds
160,Leningradskiy,RU,69.3833,178.4167,22.69,92,100,2.48,overcast clouds
161,Tevriz,RU,57.509,72.4042,22.96,84,21,3.58,few clouds
162,Dingle,PH,10.9995,122.6711,76.24,90,100,6.06,overcast clouds
163,Bilibino,RU,68.0546,166.4372,11.55,92,95,0.76,overcast clouds
164,Nienburg,DE,52.6333,9.2167,55.85,66,5,13.82,clear sky
165,Zyryanka,RU,65.75,150.85,11.77,94,93,5.17,overcast clouds
166,Kidal,ML,18.4411,1.4078,87.51,7,96,9.84,overcast clouds
167,Port-Cartier,CA,50.0334,-66.8654,41.11,64,92,13.06,overcast clouds
168,Koslan,RU,63.4564,48.8989,33.42,99,100,2.24,overcast clouds
169,Nemuro,JP,43.3236,145.575,38.7,76,1,2.86,clear sky
170,Matagami,CA,49.7502,-77.6328,41.11,20,0,6.91,clear sky
171,Cherskiy,RU,68.75,161.3,17.82,91,99,1.81,overcast clouds
172,Alice Springs,AU,-23.7,133.8833,60.35,59,75,4.61,broken clouds
173,Jacareacanga,BR,-6.2222,-57.7528,79.95,89,66,1.97,broken clouds
174,Torbay,CA,47.6666,-52.7314,39.27,87,100,24.16,overcast clouds
175,Nanortalik,GL,60.1432,-45.2371,34.63,99,100,5.73,light snow
176,Chegdomyn,RU,51.1167,133.0167,30.85,98,100,5.03,snow
177,Kawalu,ID,-7.3817,108.2082,72.39,98,91,0.92,overcast clouds
178,Talaya,RU,61.3833,152.75,9.9,94,100,3.29,overcast clouds
179,Padang,ID,-0.9492,100.3543,77.49,87,100,4.99,overcast clouds
180,Almaznyy,RU,48.0448,40.045,50.99,71,100,6.22,overcast clouds
181,Lavrentiya,RU,65.5833,-171.0,26.67,75,90,2.28,overcast clouds
182,Nikolskoye,RU,59.7035,30.7861,42.69,80,100,9.69,overcast clouds
183,Korla,CN,41.7597,86.1469,65.64,23,0,3.47,clear sky
184,Mata De Sao Joao,BR,-12.5303,-38.2992,83.95,91,3,3.89,clear sky
185,Sisimiut,GL,66.9395,-53.6735,30.18,96,100,6.46,light snow
186,Comodoro Rivadavia,AR,-45.8667,-67.5,58.86,33,0,41.43,clear sky
187,Kisanga,TZ,-7.4362,37.7034,73.62,97,100,1.48,light rain
188,Ust-Nera,RU,64.5667,143.2,10.11,97,100,5.12,overcast clouds
189,Kavieng,PG,-2.5744,150.7967,81.79,77,63,11.01,broken clouds
190,Geraldton,AU,-28.7667,114.6,66.61,52,22,11.5,few clouds
191,Coahuayana,MX,18.7333,-103.6833,89.15,37,0,8.39,clear sky
192,Oyama,JP,36.3,139.8,68.59,52,100,4.5,overcast clouds
193,Merrill,US,45.1805,-89.6835,71.37,76,100,12.66,overcast clouds
194,Langenau,DE,48.4962,10.1185,51.71,92,96,11.45,overcast clouds
195,Tiarei,PF,-17.5333,-149.3333,84.22,82,100,8.23,moderate rain
196,Teahupoo,PF,-17.8333,-149.2667,78.76,79,98,8.37,moderate rain
197,Ishigaki,JP,24.3448,124.1572,77.13,100,7,6.91,clear sky
198,Avera,US,33.194,-82.5271,82.38,42,16,9.71,few clouds
199,Upernavik,GL,72.7868,-56.1549,12.78,88,100,9.55,overcast clouds
200,Cidreira,BR,-30.1811,-50.2056,65.25,59,0,9.71,clear sky
201,Port Macquarie,AU,-31.4333,152.9167,58.89,76,76,6.15,broken clouds
202,Pisco,PE,-13.7,-76.2167,66.25,82,17,8.05,mist
203,Roma,US,43.2128,-75.4557,55.96,41,100,9.22,light rain
204,Pevek,RU,69.7008,170.3133,8.58,96,99,3.47,overcast clouds
205,San Cristobal,VE,7.7669,-72.225,78.98,82,86,1.66,overcast clouds
206,Chuy,UY,-33.6971,-53.4616,60.96,45,0,7.16,clear sky
207,Buala,SB,-8.145,159.5921,82.09,76,73,2.82,broken clouds
208,Henties Bay,NA,-22.116,14.2845,59.65,89,23,13.47,few clouds
209,Airai,TL,-8.9266,125.4092,58.6,68,17,2.1,few clouds
210,Takoradi,GH,4.8845,-1.7554,81.19,86,76,9.55,broken clouds
211,Saldanha,ZA,-33.0117,17.9442,51.85,71,0,20.98,clear sky
212,Aksu,CN,41.1231,80.2644,65.12,35,15,3.09,few clouds
213,Tooele,US,40.5308,-112.2983,50.09,50,0,9.22,clear sky
214,Qaanaaq,GL,77.484,-69.3632,2.62,83,25,4.52,scattered clouds
215,Morondava,MG,-20.2833,44.2833,75.61,89,100,8.48,light rain
216,Marsa Matruh,EG,31.3525,27.2453,62.8,72,0,3.44,clear sky
217,Coos Bay,US,43.3665,-124.2179,66.99,81,0,10.36,clear sky
218,Baruun-Urt,MN,46.6806,113.2792,35.89,43,1,4.81,clear sky
219,Gambela,ET,8.25,34.5833,73.9,82,98,4.25,overcast clouds
220,Newport,GB,51.5877,-2.9984,55.09,65,91,20.74,overcast clouds
221,Sao Borja,BR,-28.6606,-56.0044,66.94,63,0,2.48,clear sky
222,Hualmay,PE,-11.0964,-77.6139,71.42,76,11,9.91,few clouds
223,Abbeville,FR,50.1,1.8333,58.96,89,100,6.89,overcast clouds
224,Namatanai,PG,-3.6667,152.4333,80.15,79,78,6.06,broken clouds
225,Svetlogorsk,BY,52.6333,29.7333,45.0,98,100,3.74,overcast clouds
226,Inirida,CO,3.8653,-67.9239,87.21,66,69,0.76,broken clouds
227,Bilma,NE,18.6853,12.9164,92.12,11,5,7.36,clear sky
228,Breves,BR,-1.6822,-50.4803,74.68,96,100,4.43,overcast clouds
229,Provideniya,RU,64.3833,-173.3,30.6,59,81,0.87,broken clouds
230,Ust-Ilimsk,RU,58.0006,102.6619,16.65,92,89,6.49,overcast clouds
231,Usinsk,RU,65.9939,57.5281,11.23,90,83,5.73,broken clouds
232,Dikson,RU,73.5069,80.5464,-4.86,100,100,8.46,overcast clouds
233,Fairbanks,US,64.8378,-147.7164,49.24,36,0,4.61,clear sky
234,Nantucket,US,41.2835,-70.0995,53.02,64,0,12.66,clear sky
235,Butaritari,KI,3.0707,172.7902,81.54,75,91,16.15,overcast clouds
236,Krasnoselkup,RU,65.7,82.4667,-0.35,99,99,7.54,overcast clouds
237,Watertown,US,42.3709,-71.1828,68.02,24,100,10.36,overcast clouds
238,Andenes,NO,69.3143,16.1194,39.18,87,9,10.36,clear sky
239,Peachland,CA,49.7665,-119.7357,65.16,36,15,4.0,few clouds
240,Tahe,CN,52.3333,124.7333,25.75,76,8,4.74,clear sky
241,Bowen,AU,-20.0167,148.2333,76.39,78,33,20.83,scattered clouds
242,Wufeng,CN,27.45,104.8333,55.53,95,55,1.25,broken clouds
243,Camabatela,AO,-8.1881,15.375,62.74,96,100,0.6,overcast clouds
244,Mont-De-Marsan,FR,44.0,-0.6667,53.11,82,100,11.5,overcast clouds
245,Beloha,MG,-25.1667,45.05,75.04,79,100,10.25,overcast clouds
246,La Ronge,CA,55.1001,-105.2842,50.22,37,0,4.61,clear sky
247,Qujing,CN,25.4833,103.7833,58.6,83,0,7.43,clear sky
248,Bethel,US,41.3712,-73.414,65.62,40,75,5.75,broken clouds
249,Iroquois Falls,CA,48.7669,-80.6831,42.78,78,100,9.42,overcast clouds
250,Qaqortoq,GL,60.7167,-46.0333,35.76,98,100,4.47,light rain
251,Temyasovo,RU,52.9933,58.1014,39.0,57,99,5.5,overcast clouds
252,Gasa,PS,31.5,34.4667,64.89,82,1,7.4,clear sky
253,Kodinsk,RU,58.6881,99.1844,20.01,95,100,5.97,overcast clouds
254,Alyangula,AU,-13.8483,136.4192,78.67,89,100,5.75,overcast clouds
255,Ballina,AU,-28.8667,153.5667,66.16,86,75,11.5,broken clouds
256,Inverell,AU,-29.7833,151.1167,55.67,86,100,8.01,overcast clouds
257,Valle Nacional,MX,17.7833,-96.3167,98.02,29,0,6.08,clear sky
258,Kamenka,RU,51.3223,42.7678,50.4,59,100,4.12,overcast clouds
259,Nyurba,RU,63.2842,118.3319,13.08,97,99,2.53,overcast clouds
260,Bom Jesus,BR,-9.0744,-44.3586,86.23,44,99,3.58,overcast clouds
261,Sawakin,SD,19.1059,37.3321,84.22,78,2,3.22,clear sky
262,Cabo San Lucas,MX,22.8909,-109.9124,81.7,67,0,9.22,clear sky
263,Bozova,TR,37.3625,38.5267,68.92,32,21,4.43,few clouds
264,Kavaratti,IN,10.5669,72.642,84.13,71,88,5.17,overcast clouds
265,Lagoa,PT,39.05,-27.9833,57.51,67,32,24.65,scattered clouds
266,Povenets,RU,62.8487,34.8262,30.47,94,100,6.87,overcast clouds
267,Dali,CN,25.7,100.1833,55.38,89,4,5.77,clear sky
268,Belmonte,BR,-15.8631,-38.8828,78.71,84,2,6.98,clear sky
269,Tocopilla,CL,-22.092,-70.1979,67.44,71,99,4.52,overcast clouds
270,Mwinilunga,ZM,-11.7358,24.4293,61.61,93,44,2.95,scattered clouds
271,Trinidad,BO,-14.8333,-64.9,93.18,55,40,11.5,scattered clouds
272,Ushtobe,KZ,45.2514,77.9838,60.3,71,100,5.64,overcast clouds
273,Areia Branca,BR,-4.9561,-37.1369,75.4,92,100,13.09,moderate rain
274,Alenquer,BR,-1.9417,-54.7383,77.81,92,100,3.33,overcast clouds
275,Mount Isa,AU,-20.7333,139.5,69.57,100,100,5.75,overcast clouds
276,Vila Velha,BR,-20.3297,-40.2925,84.15,84,0,14.97,clear sky
277,Nara,JP,34.6851,135.8049,63.5,65,100,1.72,overcast clouds
278,San Jose,US,37.3394,-121.895,74.37,43,20,13.0,few clouds
279,San Quintin,MX,30.4833,-115.95,63.61,61,0,15.77,clear sky
280,Hernani,ES,43.2662,-1.9762,52.93,86,100,11.5,light rain
281,Hofn,IS,64.2539,-15.2082,43.39,85,3,4.54,clear sky
282,San Carlos De Bariloche,AR,-41.1456,-71.3082,42.55,87,75,28.77,broken clouds
283,Yulara,AU,-25.2406,130.9889,62.44,42,13,9.22,few clouds
284,Erenhot,CN,43.6475,111.9767,51.31,37,97,8.16,overcast clouds
285,Rawson,AR,-43.3002,-65.1023,61.95,27,28,37.67,scattered clouds
286,Kieta,PG,-6.2167,155.6333,80.74,76,100,1.16,overcast clouds
287,Sioux Lookout,CA,50.1001,-91.917,35.67,93,100,11.5,light intensity shower rain
288,Severodvinsk,RU,64.5635,39.8302,32.11,91,100,6.22,overcast clouds
289,Haines Junction,CA,60.7522,-137.5108,46.35,46,33,2.3,scattered clouds
290,Samarai,PG,-10.6167,150.6667,82.63,78,53,11.63,broken clouds
291,Souillac,MU,-20.5167,57.5167,77.38,61,20,14.97,few clouds
292,Kandrian,PG,-6.2167,149.55,77.54,86,37,3.89,scattered clouds
293,Sechura,PE,-5.5569,-80.8222,77.32,64,22,14.34,few clouds
294,Kaniama,CD,-7.5667,24.1833,67.62,94,84,2.77,light rain
295,Sciacca,IT,37.5082,13.0881,61.99,64,4,9.6,clear sky
296,Muros,ES,42.7762,-9.0603,54.84,78,25,7.16,scattered clouds
297,Andros,GR,37.8333,24.9333,61.36,76,18,3.09,few clouds
298,Chenghai,CN,23.4632,116.768,73.31,100,40,2.24,mist
299,Maun,BW,-19.9833,23.4167,64.36,94,0,3.44,clear sky
300,Severo-Kurilsk,RU,50.6789,156.125,34.99,98,100,12.93,light snow
301,Correntina,BR,-13.3433,-44.6367,84.31,36,31,2.86,scattered clouds
302,Urengoy,RU,65.9667,78.3667,-2.74,100,98,6.46,overcast clouds
303,Kruisfontein,ZA,-34.0033,24.7314,58.89,94,100,0.29,overcast clouds
304,Brookings,US,44.3114,-96.7984,73.4,35,75,32.21,broken clouds
305,Saskylakh,RU,71.9167,114.0833,-13.49,100,93,4.45,overcast clouds
306,Umm Kaddadah,SD,13.6017,26.6876,82.99,9,37,10.63,scattered clouds
307,Meulaboh,ID,4.1363,96.1285,77.18,92,82,3.96,broken clouds
308,Moron,AR,-34.6534,-58.6198,71.02,51,1,9.26,clear sky
309,Vasai,IN,19.47,72.8,86.09,64,57,3.24,broken clouds
310,Laguna,US,38.421,-121.4238,76.28,36,0,10.36,clear sky
311,Masunga,BW,-20.6246,27.4488,66.94,67,99,6.62,overcast clouds
312,Talnakh,RU,69.4865,88.3972,-3.8,99,96,4.36,overcast clouds
313,Mogadishu,SO,2.0371,45.3438,83.16,73,28,14.34,scattered clouds
314,Ahipara,NZ,-35.1667,173.1667,64.78,59,81,14.63,broken clouds
315,Chernyshevskiy,RU,63.0128,112.4714,14.94,98,100,4.29,overcast clouds
316,Araouane,ML,18.9048,-3.5265,82.11,9,59,8.99,broken clouds
317,Zhezkazgan,KZ,47.8043,67.7144,47.64,26,100,18.05,light rain
318,Karabanovo,RU,56.3167,38.7,43.84,91,100,4.25,overcast clouds
319,Richmond,US,37.5538,-77.4603,82.38,48,40,10.36,scattered clouds
320,Taos,US,36.4072,-105.5731,56.98,20,48,18.99,scattered clouds
321,Udachnyy,RU,66.4167,112.4,1.94,99,98,3.38,overcast clouds
322,Cairns,AU,-16.9167,145.7667,77.07,93,75,11.5,light rain
323,Sagua La Grande,CU,22.8067,-80.0756,83.39,60,35,17.98,scattered clouds
324,Hegang,CN,47.4,130.3667,41.56,72,83,17.18,broken clouds
325,Beringovskiy,RU,63.05,179.3167,25.63,90,94,2.06,overcast clouds
326,Nelson Bay,AU,-32.7167,152.15,62.01,97,19,10.25,few clouds
327,Sitka,US,57.0531,-135.33,49.89,53,100,12.66,overcast clouds
328,Benicarlo,ES,40.4165,0.4271,59.25,53,98,11.68,overcast clouds
329,Linxia,CN,35.6003,103.2064,46.17,77,100,6.04,light rain
330,Socoltenango,MX,16.2167,-92.25,68.25,68,71,11.27,broken clouds
331,Sabang,ID,5.8933,95.3214,83.79,72,13,2.06,few clouds
332,Porosozero,RU,62.7191,32.727,29.41,90,100,6.11,overcast clouds
333,Sobolevo,RU,54.4299,31.8996,46.6,90,100,13.69,overcast clouds
334,Fortuna,US,40.5982,-124.1573,56.93,85,100,9.22,overcast clouds
335,Isla Vista,US,34.4133,-119.861,80.26,45,20,9.22,few clouds
336,Ende,ID,-8.8432,121.6623,76.89,84,54,1.61,broken clouds
337,Mutare,ZW,-18.9707,32.6709,62.56,98,64,3.76,broken clouds
338,Lazaro Cardenas,MX,17.9583,-102.2,84.36,53,0,13.2,clear sky
339,Vardo,NO,70.3705,31.1107,38.82,86,100,16.08,overcast clouds
340,Lewisporte,CA,49.2499,-55.0482,38.91,96,100,9.15,overcast clouds
341,Kapit,MY,2.0167,112.9333,73.67,100,100,1.45,moderate rain
342,Sharan,RU,54.8167,54.0,42.08,84,24,4.85,few clouds
343,Rafina,GR,38.0181,24.006,65.82,67,5,1.61,clear sky
344,Port Lincoln,AU,-34.7333,135.8667,62.92,89,4,12.97,clear sky
345,Aswan,EG,24.0934,32.907,87.1,7,0,12.66,clear sky
346,Chateau-Thierry,FR,49.05,3.4,56.35,87,99,10.54,overcast clouds
347,Nsanje,MW,-16.92,35.262,70.9,99,72,2.3,broken clouds
348,Shakawe,BW,-18.3667,21.85,64.06,53,3,2.33,clear sky
349,Severnyy,RU,50.677,36.5532,53.64,71,75,4.47,broken clouds
350,Ilulissat,GL,69.2167,-51.1,28.42,86,75,4.61,light snow
351,Nome,US,64.5011,-165.4064,43.16,70,75,5.75,broken clouds
352,Bairiki,KI,1.3292,172.9752,82.4,78,20,11.5,few clouds
353,Faanui,PF,-16.4833,-151.75,79.52,78,93,8.16,moderate rain
354,Mizan Teferi,ET,6.9833,35.5833,62.69,95,100,2.42,overcast clouds
355,Sao Jose Da Coroa Grande,BR,-8.8978,-35.1478,79.11,84,97,8.16,overcast clouds
356,Olinda,BR,-8.0089,-34.8553,82.13,69,75,8.05,moderate rain
357,Peniche,PT,39.3558,-9.3811,56.28,90,2,8.43,clear sky
358,Honningsvag,NO,70.9821,25.9704,38.95,93,100,18.41,overcast clouds
359,Beira,MZ,-19.8436,34.8389,75.29,100,75,4.61,broken clouds
360,Aklavik,CA,68.2191,-135.0107,32.0,51,0,9.22,clear sky
361,Byron Bay,AU,-28.65,153.6167,66.09,83,94,12.64,overcast clouds
362,Lagos,NG,6.5833,3.75,82.72,86,97,6.22,overcast clouds
363,Cockburn Town,TC,21.4612,-71.1419,80.56,57,40,18.41,scattered clouds
364,Bull Savanna,JM,17.8868,-77.5902,77.77,75,97,9.04,overcast clouds
365,Nerchinskiy Zavod,RU,51.3088,119.61,25.88,44,69,2.37,broken clouds
366,Ketchikan,US,55.3422,-131.6461,44.58,87,100,17.27,moderate rain
367,Salalah,OM,17.0151,54.0924,84.29,74,40,6.91,scattered clouds
368,Ondangwa,NA,-17.9167,15.95,73.45,34,6,6.46,clear sky
369,Asau,RO,46.4333,26.4,50.95,100,53,3.0,broken clouds
370,Soliera,IT,44.738,10.9263,59.38,87,38,3.74,heavy intensity rain
371,Palmer,US,42.1584,-72.3287,66.24,27,100,5.75,overcast clouds
372,Maraba,BR,-5.3686,-49.1178,82.58,83,75,4.61,broken clouds
373,Saeby,DK,57.3319,10.5225,49.96,73,25,16.75,scattered clouds
374,Bathsheba,BB,13.2167,-59.5167,83.01,61,40,13.8,scattered clouds
375,Yumen,CN,40.2833,97.2,53.13,23,15,3.94,few clouds
376,Malayal,PH,7.208,121.942,79.18,83,74,0.74,broken clouds
377,Ypsonas,CY,34.6884,32.9574,67.17,77,0,3.44,clear sky
378,Mahebourg,MU,-20.4081,57.7,77.29,61,20,14.97,few clouds
379,Pangody,RU,65.85,74.4859,-8.16,100,72,5.75,broken clouds
380,Plaza De Caisan,PA,8.7333,-82.8167,72.19,89,98,2.21,overcast clouds
381,Nouadhibou,MR,20.931,-17.0347,69.78,64,14,10.36,few clouds
382,Chimbote,PE,-9.0853,-78.5783,70.88,77,15,9.73,few clouds
383,Khandyga,RU,62.6667,135.6,16.74,93,95,1.3,overcast clouds
384,Akhisar,TR,38.9185,27.8401,60.31,48,12,2.37,few clouds
385,Karratha,AU,-20.7377,116.8463,78.33,56,5,6.22,light rain
386,Kupang,ID,-10.1667,123.5833,76.42,82,67,5.32,broken clouds
387,Oxapampa,PE,-10.5775,-75.4017,67.53,85,77,3.42,broken clouds
388,Dunedin,NZ,-45.8742,170.5036,53.8,72,86,17.0,overcast clouds
389,Broome,US,42.2506,-75.833,63.19,44,100,3.44,overcast clouds
390,Selma,US,36.5708,-119.6121,72.01,51,1,5.35,clear sky
391,Esperance,AU,-33.8667,121.9,55.24,87,37,8.93,scattered clouds
392,Srednekolymsk,RU,67.45,153.6833,11.35,94,100,1.3,overcast clouds
393,Ilorin,NG,8.5,4.55,86.36,70,20,5.75,few clouds
394,Afyonkarahisar,TR,38.75,30.6667,57.51,52,48,2.8,scattered clouds
395,Muisne,EC,0.6,-80.0333,79.97,75,31,7.99,scattered clouds
396,Aleksandrovsk-Sakhalinskiy,RU,50.8975,142.1561,27.25,88,90,6.17,overcast clouds
397,Vila Franca Do Campo,PT,37.7167,-25.4333,57.61,79,90,14.05,overcast clouds
398,Bokoro,TD,12.3807,17.0568,93.43,30,61,9.73,broken clouds
399,Ust-Kuyga,RU,70.0167,135.6,-0.9,100,100,2.57,overcast clouds
400,Cata,RO,46.0833,25.2667,44.69,94,51,3.69,broken clouds
401,Mao,ES,39.8885,4.2658,57.76,82,20,18.41,few clouds
402,Tateyama,JP,34.9833,139.8667,65.1,86,100,13.47,overcast clouds
403,Ondjiva,AO,-17.0667,15.7333,66.2,44,15,5.03,few clouds
404,Borinskoye,RU,52.4569,39.3713,49.19,66,98,5.88,overcast clouds
405,Morros,BR,-9.4467,-46.3003,80.42,60,100,0.74,overcast clouds
406,Umba,RU,66.6871,34.3429,33.12,90,100,4.99,overcast clouds
407,Sola,VU,-13.8833,167.55,82.08,68,71,4.23,broken clouds
408,Cardston,CA,49.2,-113.3019,48.34,57,100,10.36,overcast clouds
409,Jimma,ET,7.6667,36.8333,59.92,94,98,1.68,overcast clouds
410,Puerto Suarez,BO,-18.95,-57.8,90.16,62,75,10.36,broken clouds
411,Hamilton,US,39.1834,-84.5333,84.29,37,0,16.11,clear sky
412,Lasa,IT,46.6166,10.7002,49.08,99,100,7.05,light rain
413,Tarakan,ID,3.3,117.6333,79.43,84,93,4.65,overcast clouds
414,Bukama,CD,-9.2,25.85,69.4,95,70,1.5,light rain
415,Birnin Kebbi,NG,12.4539,4.1975,98.2,15,97,5.77,overcast clouds
416,Acajutla,SV,13.5928,-89.8275,86.0,61,19,9.33,few clouds
417,Clovis,US,36.8252,-119.7029,71.04,46,20,4.61,few clouds
418,Bushehr,IR,28.9684,50.8385,71.69,49,0,11.5,clear sky
419,Honiara,SB,-9.4333,159.95,80.85,80,56,2.59,broken clouds
420,Lorengau,PG,-2.0226,147.2712,81.12,79,99,5.44,overcast clouds
421,Ust-Tsilma,RU,65.441,52.1498,30.56,98,100,2.51,overcast clouds
422,Soe,ID,-9.8607,124.284,64.22,75,96,3.02,overcast clouds
423,Mpika,ZM,-11.8343,31.4529,60.1,98,48,4.29,scattered clouds
424,Muroto,JP,33.2833,134.15,62.71,93,100,10.18,moderate rain
425,Oriximina,BR,-1.7656,-55.8661,79.72,86,95,3.36,overcast clouds
426,Redmond,US,47.674,-122.1215,64.35,56,51,7.0,broken clouds
427,Okhotsk,RU,59.3833,143.3,20.37,93,70,5.99,broken clouds
428,Cayenne,GF,4.9333,-52.3333,81.09,1,0,6.91,clear sky
429,Melilla,ES,35.2937,-2.9383,61.18,72,0,3.44,clear sky
430,Tshikapa,CD,-6.4167,20.8,72.52,95,100,0.76,light rain
431,Necochea,AR,-38.5473,-58.7368,64.18,54,5,13.85,clear sky
432,Mitrofanovka,RU,49.9708,39.6939,50.58,74,100,7.09,overcast clouds
433,Labuan,MY,5.2767,115.2417,79.16,94,20,2.3,few clouds
434,Allapalli,IN,19.4167,80.0667,91.76,31,87,2.48,overcast clouds
435,Lufilufi,WS,-13.8745,-171.5986,83.98,75,30,5.84,light rain
436,Kenai,US,60.5544,-151.2583,52.03,57,20,11.5,few clouds
437,Rosia,RO,45.8167,24.3167,50.11,82,0,5.75,clear sky
438,Sisophon,KH,13.5859,102.9737,80.71,77,37,5.5,scattered clouds
439,Naze,JP,28.3667,129.4833,72.52,90,100,12.68,overcast clouds
440,Keokuk,US,40.3973,-91.3849,82.92,39,0,19.57,clear sky
441,Flin Flon,CA,54.7682,-101.865,44.44,39,40,9.22,scattered clouds
442,Grandview,US,38.8858,-94.533,73.08,67,100,25.32,light rain
443,Beyla,GN,8.6833,-8.6333,74.91,74,92,2.44,overcast clouds
444,Ngunguru,NZ,-35.6167,174.5,61.72,69,58,11.27,broken clouds
445,Veraval,IN,20.9,70.3667,83.08,55,0,13.13,clear sky
446,Qandala,SO,11.472,49.8728,85.84,63,0,6.78,clear sky
447,Popondetta,PG,-8.7537,148.2534,73.81,92,100,2.75,overcast clouds
448,Espanola,US,35.9911,-106.0806,65.01,15,4,1.01,clear sky
449,Kampot,KH,10.6167,104.1833,78.85,82,53,1.21,broken clouds
450,Yorosso,ML,12.3536,-4.7761,95.67,22,99,7.94,overcast clouds
451,Itarare,BR,-24.1125,-49.3317,67.57,88,94,7.7,overcast clouds
452,Maldonado,UY,-34.6667,-54.9167,67.39,48,2,6.26,clear sky
453,Saint-Pierre,RE,-21.3393,55.4781,74.88,75,20,6.91,few clouds
454,Kachiry,KZ,53.0675,76.1036,26.22,37,0,9.53,clear sky
455,Husavik,IS,66.0449,-17.3389,45.9,75,13,2.77,few clouds
456,Nova Odesa,UA,47.3078,31.7851,48.63,81,7,11.25,clear sky
457,Kindu,CD,-2.95,25.95,70.86,99,100,1.79,moderate rain
458,Tura,IN,25.5198,90.2201,72.45,88,0,6.58,clear sky
459,Bella Vista,US,36.4295,-94.2316,80.53,51,20,27.63,few clouds
460,Tessalit,ML,20.1986,1.0114,83.98,6,48,10.36,scattered clouds
461,Havre-Saint-Pierre,CA,50.2334,-63.5986,35.96,55,100,18.41,overcast clouds
462,Lena,ES,43.1,-5.7333,39.9,99,100,2.35,overcast clouds
463,Shimoda,JP,34.6667,138.95,63.1,78,100,6.53,overcast clouds
464,Baykit,RU,61.67,96.37,18.84,95,98,3.02,overcast clouds
465,Ushibuka,JP,32.1906,130.0228,63.82,96,100,7.2,heavy intensity rain
466,La Ligua,CL,-32.4524,-71.2311,67.84,56,0,5.39,clear sky
467,Imeni Zhelyabova,RU,58.9544,36.5956,40.68,89,100,7.85,overcast clouds
468,Avesta,SE,60.1455,16.1679,41.59,69,8,10.04,clear sky
469,La Libertad,EC,-2.2333,-80.9,78.46,73,0,10.36,clear sky
470,Pathein,MM,16.7833,94.7333,80.89,82,36,7.31,scattered clouds
471,Hohhot,CN,40.8106,111.6522,48.49,31,0,4.47,clear sky
472,Sakakah,SA,29.9697,40.2064,67.57,54,100,15.95,overcast clouds
473,Vrangel,RU,42.7297,133.0839,43.74,86,13,3.83,few clouds
474,Vostok,RU,46.4856,135.8833,38.17,81,100,10.89,overcast clouds
475,Odweyne,SO,9.4092,45.064,74.66,59,46,4.41,scattered clouds
476,Copiapo,CL,-27.3667,-70.3333,58.69,46,0,7.74,clear sky
477,Alghero,IT,40.5589,8.3181,60.89,72,0,16.11,clear sky
478,Stephenville,US,32.2207,-98.2023,82.17,52,100,17.27,overcast clouds
479,Buraydah,SA,26.326,43.975,68.45,57,100,12.57,overcast clouds
480,Mount Gambier,AU,-37.8333,140.7667,42.71,100,0,6.91,clear sky
481,Muravlenko,RU,63.7898,74.523,-3.93,100,30,5.03,scattered clouds
482,Ereymentau,KZ,51.6199,73.1033,26.87,47,2,10.2,clear sky
483,Kahului,US,20.8947,-156.47,82.42,54,40,21.85,scattered clouds
484,Tiznit,MA,29.5833,-9.5,53.98,74,21,8.81,few clouds
485,Daru,PG,-9.0763,143.2092,76.57,93,100,7.83,moderate rain
486,Springdale,US,36.1867,-94.1288,79.75,55,40,23.02,scattered clouds
487,Porto Velho,BR,-8.7619,-63.9039,87.85,62,40,3.44,scattered clouds
488,Ponta Delgada,PT,37.7333,-25.6667,57.92,82,40,16.11,scattered clouds
489,Merauke,ID,-8.4667,140.3333,79.36,83,100,5.5,overcast clouds
490,Manhattan,US,40.7834,-73.9662,67.41,37,0,11.5,clear sky
491,Pervomayskoye,RU,43.919,46.7102,50.25,68,35,6.02,scattered clouds
492,Pyapon,MM,16.2833,95.6833,80.71,79,18,7.45,few clouds
493,Ixtapa,MX,20.7,-105.2,90.52,32,1,8.52,clear sky
494,Khani,GE,41.9563,42.9566,60.37,66,3,7.11,clear sky
495,Xaltianguis,MX,17.0667,-99.8333,78.31,35,7,8.86,clear sky
496,Manicore,BR,-5.8092,-61.3003,81.0,91,27,0.45,scattered clouds
497,Smithers,CA,54.7804,-127.1743,46.72,57,100,9.22,overcast clouds
498,Sukumo,JP,32.9333,132.7333,61.45,98,100,6.89,moderate rain
499,Eyl,SO,7.9803,49.8164,81.99,76,25,7.83,scattered clouds
500,Didwana,IN,27.4,74.5667,78.85,16,0,4.7,clear sky
501,Pangnirtung,CA,66.1451,-65.7125,13.93,85,6,1.54,clear sky
502,Lukovetskiy,RU,64.2956,41.9211,31.37,95,100,5.14,overcast clouds
503,Los Llanos De Aridane,ES,28.6585,-17.9182,62.35,90,75,4.0,broken clouds
504,Arcachon,FR,44.5875,-1.0519,53.65,87,100,5.75,overcast clouds
505,Bacolod,PH,10.6667,122.95,78.44,82,100,5.91,overcast clouds
506,Lac-Megantic,CA,45.5834,-70.8823,46.51,38,89,10.51,overcast clouds
507,Mbandaka,CD,0.0487,18.2603,72.28,95,80,3.69,broken clouds
508,Ulaangom,MN,49.9811,92.0667,34.92,50,0,4.59,clear sky
509,Shalya,RU,57.2471,58.7298,30.22,87,86,4.72,overcast clouds
510,Ust-Kulom,RU,61.6864,53.6902,36.46,99,100,3.36,overcast clouds
511,Emmett,US,43.8735,-116.4993,61.0,37,40,5.01,scattered clouds
512,Noumea,NC,-22.2763,166.4572,77.0,99,69,14.27,broken clouds
513,Yarada,IN,17.65,83.2667,84.52,79,40,6.91,scattered clouds
514,Coihaique,CL,-45.5752,-72.0662,42.75,81,100,9.22,light intensity shower rain
515,Kerema,PG,-7.9631,145.7785,76.59,90,97,8.52,overcast clouds
516,Guilin,CN,25.2819,110.2864,71.71,97,42,0.18,light rain
517,Oga,IT,46.4631,10.347,41.68,99,100,6.89,overcast clouds
518,Kuybyshevo,RU,47.8123,38.9073,52.3,73,96,7.29,overcast clouds
519,Macas,EC,-2.3167,-78.1167,74.95,83,75,3.44,thunderstorm
520,Colquechaca,BO,-18.6667,-66.0167,46.02,31,13,6.2,few clouds
521,Chongwe,ZM,-15.3292,28.682,65.98,81,93,2.68,overcast clouds
522,Walvis Bay,NA,-22.9575,14.5053,58.15,82,0,9.22,clear sky
523,Gatton,AU,-27.55,152.2833,62.64,90,84,3.78,broken clouds
524,Kaduna,NG,10.5222,7.4383,78.89,68,100,5.95,overcast clouds
525,Baudh,IN,20.8416,84.3213,85.35,30,41,1.81,scattered clouds
526,Charters Towers,AU,-20.1,146.2667,67.35,90,85,10.78,overcast clouds
527,Tilichiki,RU,60.4667,166.1,19.31,92,100,8.1,overcast clouds
528,Bongaree,AU,-27.0797,153.1586,67.21,74,76,18.03,broken clouds
529,Itaituba,BR,-4.2761,-55.9836,91.56,58,20,5.75,few clouds
530,Port Shepstone,ZA,-30.7414,30.455,67.44,86,68,7.52,light rain
531,Beroroha,MG,-21.6667,45.1667,72.64,94,100,2.1,light rain
532,Kortkeros,RU,61.8106,51.5806,46.4,98,98,2.04,overcast clouds
533,Oranjestad,AW,12.524,-70.027,82.35,61,20,18.41,few clouds
534,Ofunato,JP,39.0717,141.7167,46.58,61,63,3.02,broken clouds
535,Chute-Aux-Outardes,CA,49.1168,-68.399,39.18,38,0,9.22,clear sky
536,Toro,CO,4.6117,-76.0814,87.08,80,56,5.26,light rain
537,Whitianga,NZ,-36.8333,175.7,61.84,67,13,11.21,few clouds
538,Santa Maria Del Oro,MX,25.9333,-105.3667,92.39,6,0,17.27,clear sky
539,Cao Bang,VN,22.6667,106.25,72.05,99,53,3.22,broken clouds
540,Hami,CN,42.8,93.45,63.9,24,38,9.98,scattered clouds
541,Saint-Augustin,CA,51.226,-58.6502,36.01,100,100,2.19,overcast clouds
542,Lacombe,CA,52.4668,-113.7353,53.02,46,3,1.14,clear sky
543,Wagar,SD,16.1525,36.2032,93.52,10,55,11.92,broken clouds
544,Carballo,ES,43.213,-8.691,53.87,82,36,4.56,scattered clouds
545,Baft,IR,29.234,56.6057,56.88,39,6,1.57,clear sky
546,Atambua,ID,-9.1061,124.8925,71.87,81,40,3.67,scattered clouds
547,Medina,SA,24.4686,39.6142,88.23,27,0,5.75,clear sky
548,Jiayuguan,CN,39.8167,98.3,52.88,22,4,7.45,clear sky
549,Magistralnyy,RU,56.1725,107.4458,23.86,91,100,7.05,light snow
550,Markova,UA,48.6758,24.4138,40.75,92,65,3.8,broken clouds
551,Rocha,UY,-34.4833,-54.3333,61.54,44,1,7.02,clear sky
552,Prince Rupert,CA,54.3161,-130.3201,44.69,87,100,33.38,light rain
553,Rio Gallegos,AR,-51.6226,-69.2181,46.45,87,100,4.61,overcast clouds
554,Ordu,TR,40.9086,37.6845,36.1,65,5,5.28,clear sky
555,Luanda,AO,-8.8368,13.2343,78.8,89,20,8.05,few clouds
556,Port-Gentil,GA,-0.7193,8.7815,80.56,89,40,4.61,scattered clouds
557,Constitucion,CL,-35.3333,-72.4167,58.87,87,95,4.14,overcast clouds
558,Ranong,TH,9.9658,98.6348,78.4,86,44,3.89,scattered clouds
559,Bonfim,BR,3.0833,-59.95,88.83,54,91,7.16,overcast clouds
560,Kazachinskoye,RU,57.6953,93.2761,18.64,93,16,3.53,few clouds
561,Machala,EC,-3.2667,-79.9667,84.15,61,20,6.91,few clouds
562,Waipawa,NZ,-41.4122,175.5153,53.46,73,40,4.36,scattered clouds
563,Nizhniy Chir,RU,48.3597,43.0865,52.03,72,27,3.91,scattered clouds
564,Constantine,DZ,36.365,6.6147,54.81,66,75,3.44,broken clouds
565,Evensk,RU,61.95,159.2333,23.22,72,92,13.13,overcast clouds
566,Kaberamaido,UG,1.7389,33.1594,66.85,91,100,4.07,light rain
567,Greymouth,NZ,-42.4667,171.2,57.29,85,100,13.71,overcast clouds
568,Staryy Nadym,RU,65.6118,72.6842,1.45,99,98,1.95,overcast clouds
569,Flagstaff,US,35.1981,-111.6513,64.06,19,0,9.22,clear sky
570,Boyuibe,BO,-20.4167,-63.2833,81.27,53,38,7.0,scattered clouds
571,Nueva Guinea,NI,11.6876,-84.4562,82.38,70,33,9.84,scattered clouds
572,Gorin,RU,51.1983,136.6669,31.44,99,100,4.25,light snow
573,Abu Zabad,SD,12.35,29.25,84.42,11,0,9.73,clear sky
574,Antalaha,MG,-14.9003,50.2788,73.11,92,89,5.12,moderate rain
575,Hay River,CA,60.8156,-115.7999,26.56,80,20,8.05,few clouds
576,Sept-Iles,CA,50.2001,-66.3821,41.43,35,75,16.11,broken clouds
577,Sibolga,ID,1.7427,98.7792,77.77,89,100,3.09,overcast clouds
578,Aykhal,RU,66.0,111.5,1.2,100,91,3.96,overcast clouds
579,Klyuchi,RU,52.2667,79.1667,25.2,61,17,13.96,few clouds
580,Samdari,IN,25.8167,72.5833,84.06,15,17,10.74,few clouds
581,Mahibadhoo,MV,3.7833,72.9667,84.0,73,63,9.62,broken clouds
582,Lynn Haven,US,30.2455,-85.6483,80.02,61,40,10.36,scattered clouds
583,Kungurtug,RU,50.5994,97.5228,22.24,73,28,2.39,scattered clouds
584,Taoudenni,ML,22.6783,-3.9836,82.13,13,6,10.11,clear sky
585,Ayan,RU,56.45,138.1667,22.03,90,86,3.98,overcast clouds
586,South Patrick Shores,US,28.2022,-80.6095,81.09,63,20,14.97,few clouds
587,Yazd,IR,31.8972,54.3675,73.51,21,40,4.61,scattered clouds
588,Gornozavodsk,RU,58.3758,58.3211,27.64,94,32,2.98,scattered clouds
589,Las Palmas,ES,28.4204,-14.0131,65.19,52,20,10.36,few clouds
590,Novo Aripuana,BR,-5.1206,-60.3797,79.12,91,96,2.57,overcast clouds
591,Alugan,PH,12.2188,125.4808,79.83,81,100,6.96,overcast clouds
592,Fallon,US,39.4735,-118.7774,59.92,27,40,6.91,scattered clouds
593,Pitimbu,BR,-7.4706,-34.8086,79.39,82,99,9.6,moderate rain
594,Bonavista,CA,48.6499,-53.1147,33.76,90,100,24.47,light snow
595,Quatre Cocos,MU,-20.2078,57.7625,77.11,60,75,18.57,broken clouds
596,Reconquista,AR,-29.15,-59.65,66.38,59,0,5.32,clear sky
597,Filadelfia,US,39.9523,-75.1638,65.5,39,100,8.05,overcast clouds
598,Mayo,US,38.8876,-76.5119,79.77,48,0,11.99,clear sky
599,Soyo,AO,-6.1349,12.3689,78.8,87,97,1.61,light rain
600,Tezu,IN,27.9167,96.1667,67.82,90,99,3.96,overcast clouds
601,Half Moon Bay,US,37.4636,-122.4286,75.54,63,20,4.61,few clouds
602,Jiangyou,CN,31.7667,104.7167,68.27,86,98,4.88,overcast clouds
603,Anandnagar,IN,27.1,83.2833,80.78,16,0,7.81,clear sky
604,Ahuimanu,US,21.4447,-157.8378,82.11,72,100,14.97,light rain
605,Zhigansk,RU,66.7697,123.3711,6.13,98,97,8.3,overcast clouds
606,Tortoli,IT,39.9256,9.6572,66.02,27,0,11.5,clear sky
607,Coquimbo,CL,-29.9533,-71.3436,56.93,100,100,14.97,overcast clouds
608,Esso,RU,55.9333,158.7,30.07,95,100,5.57,overcast clouds
609,Sterling,US,39.0062,-77.4286,82.11,44,75,9.22,broken clouds
610,Camopi,GF,3.1655,-52.3158,74.07,98,100,2.24,moderate rain
611,Yabrud,SY,33.9674,36.6574,60.62,51,65,2.01,broken clouds
612,Canutama,BR,-6.5339,-64.3831,80.56,92,89,0.09,light rain
613,Xai-Xai,MZ,-25.0519,33.6442,70.05,90,43,2.53,scattered clouds
614,Muli,MV,2.9167,73.5667,84.0,74,63,8.19,broken clouds
615,Kiama,AU,-34.6833,150.8667,57.25,93,10,1.01,clear sky
616,Callaguip,PH,18.0714,120.4867,80.55,73,4,3.11,clear sky
617,Zitlala,MX,17.6333,-99.0833,81.36,25,35,3.06,scattered clouds
618,Bac Lieu,VN,9.285,105.7244,81.45,81,70,6.08,broken clouds
619,Perth,AU,-31.9333,115.8333,62.78,68,0,17.27,clear sky
620,Shorapur,IN,16.5167,76.75,87.49,30,94,5.55,overcast clouds
621,Lang Suan,TH,9.9456,99.0785,78.28,87,37,1.41,scattered clouds
622,Inta,RU,66.0317,60.1659,7.56,95,89,4.12,overcast clouds
623,Tucurui,BR,-3.7661,-49.6725,74.86,94,100,5.1,overcast clouds
624,Natal,BR,-5.795,-35.2094,75.42,94,75,9.22,light rain
625,Debre Tabor,ET,11.85,38.0167,59.92,56,95,2.55,overcast clouds
626,Sao Joao Da Barra,BR,-21.6403,-41.0511,91.49,76,1,12.08,clear sky
627,Zabol,AF,32.25,67.25,65.35,22,95,10.02,overcast clouds
628,Boende,CD,-0.2167,20.8667,71.83,89,52,3.06,broken clouds
629,Tempio Pausania,IT,40.8974,9.1035,56.32,79,73,9.26,broken clouds
630,Sena Madureira,BR,-9.0656,-68.6569,82.72,75,100,1.32,overcast clouds
631,Taltal,CL,-25.4,-70.4833,64.0,78,33,2.3,scattered clouds
632,Khudumelapye,BW,-23.8833,24.75,65.48,64,22,4.72,few clouds
633,Cap-Aux-Meules,CA,47.3821,-61.8597,32.05,64,20,27.63,few clouds
634,Shiyan,CN,32.6475,110.7781,63.57,87,59,1.36,broken clouds
635,Harrison,US,30.4091,-89.0436,80.76,67,0,17.27,clear sky
636,Ukholovo,RU,53.7929,40.4892,48.65,74,53,5.39,broken clouds
637,Tanda,IN,26.55,82.65,82.56,15,0,7.18,clear sky
638,Yendi,GH,9.4427,-0.0099,87.55,50,73,8.28,broken clouds
639,Mabai,CN,23.0128,104.4508,60.6,96,80,4.41,broken clouds
640,Dasoguz,TM,41.8363,59.9666,64.35,72,0,4.61,clear sky
641,Mariani,IN,26.6667,94.3333,69.26,95,1,3.62,clear sky
642,Alekseyevsk,RU,57.8406,108.3492,26.91,95,100,5.03,overcast clouds
643,Campbell River,CA,50.0163,-125.2446,54.45,76,100,10.36,overcast clouds
644,Kimbe,PG,-5.5502,150.1429,75.99,92,35,2.89,light rain
645,Vanimo,PG,-2.6741,141.3028,76.21,87,100,3.98,overcast clouds
646,Umm Lajj,SA,25.0213,37.2685,76.82,72,0,4.92,clear sky
647,Namibe,AO,-15.1961,12.1522,72.05,74,29,3.47,scattered clouds
648,Springfield,US,37.2153,-93.2982,79.21,46,0,28.01,clear sky
649,Nizwa,OM,22.9333,57.5333,79.66,31,11,0.31,few clouds
650,Itoman,JP,26.1247,127.6694,75.97,96,40,11.5,scattered clouds
651,Bordighera,IT,43.7806,7.6645,55.35,88,87,17.0,light rain
652,Sabla,NG,12.7525,4.7077,97.74,13,95,5.41,overcast clouds
653,Itajuba,BR,-22.4256,-45.4528,78.75,83,1,0.49,clear sky
654,Bedesa,ET,8.9,40.7833,64.9,69,20,3.51,few clouds
655,Reus,ES,41.1561,1.1069,54.86,61,20,21.85,few clouds
656,Tual,ID,-5.6667,132.75,83.53,69,45,4.7,scattered clouds
657,Lata,PT,40.1629,-8.3327,45.55,95,9,1.66,clear sky
658,Pietarsaari,FI,63.65,22.6833,37.47,76,46,6.24,scattered clouds
659,Weyburn,CA,49.6668,-103.8511,37.62,81,100,32.21,overcast clouds
660,Te Anau,NZ,-45.4167,167.7167,50.83,88,100,4.76,overcast clouds
661,Deputatskiy,RU,69.3,139.9,2.98,97,100,0.67,overcast clouds
662,Skjervoy,NO,70.0311,20.9714,33.8,77,74,7.29,broken clouds
663,Kuytun,RU,54.3419,101.5036,26.42,62,100,2.28,overcast clouds
664,Birin,NP,26.8865,88.0718,59.83,69,0,4.65,clear sky
